[
    {
      "name":"Russian & Turkish Baths",
      "url":"https://maps.google.com/?q=place_id:ChIJT6uag51ZwokRBV2vUMM3FWQ",
      "coordinates":{
        "lat":40.728232,
        "lng":-73.9835859
      },
      "heat":"95",
      "cold":"10-20",
      "description":"Quintessential New York sauna. Purchase bulk passes for economic visits as low as 25 US dollars. The brief era of the over-chlorinated cold plunge (~2019-2022) appears to finally be over and the Russian & Turkish Baths reigns as the best NYC sauna."
    },
    {
      "name":"Paradise",
      "url":"https://maps.google.com/?q=place_id:ChIJpbgTwUGLGGARzA9IWdvSpuM",
      "coordinates":{
        "lat":35.648092,
        "lng":139.7457597
      },
      "heat":"90",
      "cold":"10-20",
      "description":"Tokyo paradise."
    },
    {
      "name":"BATHHOUSE",
      "url":"https://maps.google.com/?q=place_id:ChIJBTF_ACxZwokRk8y1ICME3F4",
      "coordinates":{
        "lat":40.7205873,
        "lng":-73.9575054
      },
      "heat":"90",
      "cold":"20",
      "description":"True to overproductionized Williamsburg. Hilarious Aufguss experiences served daily represents the commoditization of wellness culture. Recommend avoiding if not for the reasonably functional sauna and cold plunge."
    },
    {
      "name":"L\u00f6yly Helsinki",
      "url":"https://maps.google.com/?q=place_id:ChIJ7WWs57ELkkYRJJRbVu2rgfo",
      "coordinates":{
        "lat":60.15206559999999,
        "lng":24.9302737
      },
      "heat":"90",
      "cold":"Unknown",
      "description":"Helsinki's premier sauna experience."
    },
    {
      "name":"Bota Bota, spa-sur-l'eau",
      "url":"https://maps.google.com/?q=place_id:ChIJPzRiZ_YayUwRIOdIDO6HM5U",
      "coordinates":{
        "lat":45.499865,
        "lng":-73.5511057
      },
      "heat":"90",
      "cold":"15",
      "description":"On an immobile boat. The Williamsburg BATHHOUSE of the far north."
    },
    {
      "name":"ROOFTOP Sauna",
      "url":"https://maps.google.com/?q=place_id:ChIJlxDznifvGGARKGJPDLXWVT4",
      "coordinates":{
        "lat":35.7034904,
        "lng":139.6011096
      },
      "heat":"90",
      "cold":"20",
      "description":"Bathtub cold plunges on a roof, of varying temperature. Experience sunset totonou at this one-of-a-kind sauna."
    }
  ]